{
  "data": [
    {
      "latitude": 47.222263,
      "longitude": 39.710368,
      "name": "Парк им. М. Горького",
      "dist": 977.0,
      "subtitle": "",
      "tabName": "Развлечения",
      "address": "улица Большая Садовая, 45"
    },
    {
      "latitude": 47.227289,
      "longitude": 39.737796,
      "name": "Парк культуры и отдыха 1 Мая",
      "dist": 1258.0,
      "subtitle": "",
      "tabName": "Развлечения",
      "address": "улица Суворова, 72а"
    },
    {
      "latitude": 47.225153,
      "longitude": 39.728889,
      "name": "Кластер С52",
      "dist": 566.0,
      "subtitle": "культурно-деловой центр",
      "tabName": "Развлечения",
      "address": "улица Суворова, 52а"
    },
    {
      "latitude": 47.226529,
      "longitude": 39.732363,
      "name": "Магнит Семейный",
      "dist": 866.0,
      "subtitle": "сеть гипермаркетов",
      "tabName": "Развлечения",
      "address": "улица Суворова, 91"
    },
    {
      "latitude": 47.224926,
      "longitude": 39.704583,
      "name": "Астор",
      "dist": 1456.0,
      "subtitle": "галерея",
      "tabName": "Развлечения",
      "address": "Будённовский проспект, 49/97"
    },
    {
      "latitude": 47.224272,
      "longitude": 39.722589,
      "name": "Детский сад №71",
      "dist": 278.0,
      "subtitle": "",
      "tabName": "Образование",
      "address": "улица Суворова, 28"
    },
    {
      "latitude": 47.218677,
      "longitude": 39.720891,
      "name": "Детский сад №71",
      "dist": 392.0,
      "subtitle": "",
      "tabName": "Образование",
      "address": "Ворошиловский проспект, 8"
    },
    {
      "latitude": 47.225407,
      "longitude": 39.722148,
      "name": "Детский сад №235",
      "dist": 408.0,
      "subtitle": "",
      "tabName": "Образование",
      "address": "проспект Чехова, 45а"
    },
    {
      "latitude": 47.225975,
      "longitude": 39.724897,
      "name": "Детский сад №285",
      "dist": 479.0,
      "subtitle": "",
      "tabName": "Образование",
      "address": "улица Суворова, 51"
    },
    {
      "latitude": 47.222277,
      "longitude": 39.730779,
      "name": "Детский сад №50",
      "dist": 572.0,
      "subtitle": "",
      "tabName": "Образование",
      "address": "Петровская, 38"
    },
    {
      "latitude": 47.218216,
      "longitude": 39.728812,
      "name": "Детский сад №158",
      "dist": 581.0,
      "subtitle": "",
      "tabName": "Образование",
      "address": "Береговая, 53"
    },
    {
      "latitude": 47.224919,
      "longitude": 39.715094,
      "name": "Детский сад №69",
      "dist": 708.0,
      "subtitle": "",
      "tabName": "Образование",
      "address": "Пушкинская улица, 76"
    },
    {
      "latitude": 47.228462,
      "longitude": 39.723809,
      "name": "Детский сад №118",
      "dist": 740.0,
      "subtitle": "",
      "tabName": "Образование",
      "address": "улица Максима Горького, 164"
    },
    {
      "latitude": 47.228581,
      "longitude": 39.725499,
      "name": "Жемчужина",
      "dist": 771.0,
      "subtitle": "частный детский сад",
      "tabName": "Образование",
      "address": "улица Максима Горького, 168"
    },
    {
      "latitude": 47.223496,
      "longitude": 39.712681,
      "name": "Детский сад №156",
      "dist": 822.0,
      "subtitle": "",
      "tabName": "Образование",
      "address": "переулок Семашко, 50"
    },
    {
      "latitude": 47.219091,
      "longitude": 39.713097,
      "name": "Удача",
      "dist": 827.0,
      "subtitle": "частный детский сад",
      "tabName": "Образование",
      "address": "Темерницкая, 65"
    },
    {
      "latitude": 47.219594,
      "longitude": 39.712064,
      "name": "Детский сад №232",
      "dist": 883.0,
      "subtitle": "",
      "tabName": "Образование",
      "address": "Серафимовича, 69"
    },
    {
      "latitude": 47.22955,
      "longitude": 39.726625,
      "name": "Детский сад №235",
      "dist": 897.0,
      "subtitle": "",
      "tabName": "Образование",
      "address": "улица Максима Горького, 217"
    },
    {
      "latitude": 47.228657,
      "longitude": 39.729768,
      "name": "Детский сад №63",
      "dist": 907.0,
      "subtitle": "",
      "tabName": "Образование",
      "address": "Пушкинская улица, 179"
    },
    {
      "latitude": 47.223606,
      "longitude": 39.735041,
      "name": "Айва",
      "dist": 915.0,
      "subtitle": "детская среда развития",
      "tabName": "Образование",
      "address": "переулок Журавлёва, 30/55"
    },
    {
      "latitude": 47.230115,
      "longitude": 39.723671,
      "name": "Детский сад №263",
      "dist": 923.0,
      "subtitle": "",
      "tabName": "Образование",
      "address": "Красноармейская улица, 204"
    },
    {
      "latitude": 47.229381,
      "longitude": 39.716576,
      "name": "Детский сад №73",
      "dist": 981.0,
      "subtitle": "",
      "tabName": "Образование",
      "address": "Ворошиловский проспект, 50"
    },
    {
      "latitude": 47.219248,
      "longitude": 39.710051,
      "name": "Детский сад №80",
      "dist": 1040.0,
      "subtitle": "",
      "tabName": "Образование",
      "address": "Социалистическая, 66"
    },
    {
      "latitude": 47.220791,
      "longitude": 39.736948,
      "name": "Детский сад №70",
      "dist": 1043.0,
      "subtitle": "",
      "tabName": "Образование",
      "address": "улица Седова, 24"
    },
    {
      "latitude": 47.23138,
      "longitude": 39.729453,
      "name": "Lemoland",
      "dist": 1162.0,
      "subtitle": "",
      "tabName": "Образование",
      "address": "Красноармейская улица, 232"
    },
    {
      "latitude": 47.224632,
      "longitude": 39.73811,
      "name": "Детский сад №70",
      "dist": 1168.0,
      "subtitle": "",
      "tabName": "Образование",
      "address": "Социалистическая, 198а"
    },
    {
      "latitude": 47.223253,
      "longitude": 39.707297,
      "name": "Детский сад №156",
      "dist": 1219.0,
      "subtitle": "",
      "tabName": "Образование",
      "address": "Пушкинская улица, 50Б"
    },
    {
      "latitude": 47.23266,
      "longitude": 39.719687,
      "name": "Детский сад №63",
      "dist": 1236.0,
      "subtitle": "",
      "tabName": "Образование",
      "address": "проспект Чехова, 94Б"
    },
    {
      "latitude": 47.22176,
      "longitude": 39.706508,
      "name": "Разумейка",
      "dist": 1268.0,
      "subtitle": "частный детский сад",
      "tabName": "Образование",
      "address": "Будённовский проспект, 33"
    },
    {
      "latitude": 47.232579,
      "longitude": 39.729132,
      "name": "Kids Club",
      "dist": 1277.0,
      "subtitle": "детский досуговый центр",
      "tabName": "Образование",
      "address": "Тельмана, 110 ст2"
    },
    {
      "latitude": 47.218868,
      "longitude": 39.705623,
      "name": "Аленушка",
      "dist": 1375.0,
      "subtitle": "детский сад №181",
      "tabName": "Образование",
      "address": "переулок Островского, 36"
    },
    {
      "latitude": 47.233281,
      "longitude": 39.716067,
      "name": "Детский сад №118",
      "dist": 1386.0,
      "subtitle": "",
      "tabName": "Образование",
      "address": "Варфоломеева, 286"
    },
    {
      "latitude": 47.231177,
      "longitude": 39.71038,
      "name": "Любимый Зая",
      "dist": 1426.0,
      "subtitle": "частный детский сад",
      "tabName": "Образование",
      "address": "Филимоновская, 155"
    },
    {
      "latitude": 47.23174,
      "longitude": 39.735245,
      "name": "Детский сад №263",
      "dist": 1429.0,
      "subtitle": "",
      "tabName": "Образование",
      "address": "Восточная, 52"
    },
    {
      "latitude": 47.23106,
      "longitude": 39.736808,
      "name": "Фокус IQ",
      "dist": 1453.0,
      "subtitle": "детский клуб",
      "tabName": "Образование",
      "address": "улица Максима Горького, 226/43"
    },
    {
      "latitude": 47.227808,
      "longitude": 39.706006,
      "name": "Детский сад №7",
      "dist": 1466.0,
      "subtitle": "",
      "tabName": "Образование",
      "address": "Города Волос, 3"
    },
    {
      "latitude": 47.234741,
      "longitude": 39.727714,
      "name": "Веселые ребята",
      "dist": 1476.0,
      "subtitle": "частный детский сад",
      "tabName": "Образование",
      "address": "Филимоновская, 251"
    },
    {
      "latitude": 47.219014,
      "longitude": 39.704076,
      "name": "Детский сад №123",
      "dist": 1486.0,
      "subtitle": "",
      "tabName": "Образование",
      "address": "улица Большая Садовая, 34а"
    },
    {
      "latitude": 47.222359,
      "longitude": 39.7248,
      "name": "Лицей №51 им. Б.В. Капустина",
      "dist": 132.0,
      "subtitle": "",
      "tabName": "Образование",
      "address": "проспект Чехова, 36"
    },
    {
      "latitude": 47.223303,
      "longitude": 39.727882,
      "name": "Top IT School",
      "dist": 388.0,
      "subtitle": "частная школа",
      "tabName": "Образование",
      "address": "Социалистическая, 141"
    },
    {
      "latitude": 47.219343,
      "longitude": 39.719582,
      "name": "Гимназия №45",
      "dist": 391.0,
      "subtitle": "",
      "tabName": "Образование",
      "address": "Ворошиловский проспект, 29"
    },
    {
      "latitude": 47.223005,
      "longitude": 39.729526,
      "name": "Baby cool",
      "dist": 493.0,
      "subtitle": "детский клуб",
      "tabName": "Образование",
      "address": "Социалистическая, 154а"
    },
    {
      "latitude": 47.217092,
      "longitude": 39.719825,
      "name": "ОР Авнер-Свет Знаний",
      "dist": 586.0,
      "subtitle": "гимназия",
      "tabName": "Образование",
      "address": "Ульяновская улица, 57"
    },
    {
      "latitude": 47.220237,
      "longitude": 39.715774,
      "name": "Школа №39",
      "dist": 593.0,
      "subtitle": "",
      "tabName": "Образование",
      "address": "Серафимовича, 85"
    },
    {
      "latitude": 47.227299,
      "longitude": 39.726279,
      "name": "Лицей классического элитарного образования",
      "dist": 651.0,
      "subtitle": "",
      "tabName": "Образование",
      "address": "Пушкинская улица, 152"
    },
    {
      "latitude": 47.228179,
      "longitude": 39.724424,
      "name": "Школа №47",
      "dist": 713.0,
      "subtitle": "",
      "tabName": "Образование",
      "address": "улица Максима Горького, 166"
    },
    {
      "latitude": 47.218653,
      "longitude": 39.713563,
      "name": "Кот",
      "dist": 814.0,
      "subtitle": "частная школа",
      "tabName": "Образование",
      "address": "Темерницкая, 54"
    },
    {
      "latitude": 47.226398,
      "longitude": 39.714146,
      "name": "Средняя общеобразовательная школа №49",
      "dist": 858.0,
      "subtitle": "",
      "tabName": "Образование",
      "address": "улица Максима Горького, 108"
    },
    {
      "latitude": 47.222367,
      "longitude": 39.73494,
      "name": "Международная школа Алла Прима",
      "dist": 887.0,
      "subtitle": "",
      "tabName": "Образование",
      "address": "Станиславского, 165"
    },
    {
      "latitude": 47.223174,
      "longitude": 39.735351,
      "name": "Школа №5",
      "dist": 929.0,
      "subtitle": "",
      "tabName": "Образование",
      "address": "переулок Журавлёва, 26"
    },
    {
      "latitude": 47.227402,
      "longitude": 39.713208,
      "name": "неШкола 4К",
      "dist": 982.0,
      "subtitle": "частная школа",
      "tabName": "Образование",
      "address": "Красноармейская улица, 168"
    },
    {
      "latitude": 47.228646,
      "longitude": 39.733477,
      "name": "Средняя общеобразовательная школа №80 им. Героя Советского Союза Рихарда Зорге",
      "dist": 1085.0,
      "subtitle": "",
      "tabName": "Образование",
      "address": "Пушкинская улица, 190"
    },
    {
      "latitude": 47.227201,
      "longitude": 39.710357,
      "name": "Лицей №33 им. Ростовского полка народного ополчения",
      "dist": 1146.0,
      "subtitle": "",
      "tabName": "Образование",
      "address": "Красноармейская улица, 158"
    },
    {
      "latitude": 47.214537,
      "longitude": 39.712516,
      "name": "Гимназия №35",
      "dist": 1147.0,
      "subtitle": "",
      "tabName": "Образование",
      "address": "Соборный переулок, 1"
    },
    {
      "latitude": 47.23138,
      "longitude": 39.729453,
      "name": "Эстус",
      "dist": 1162.0,
      "subtitle": "гимназия",
      "tabName": "Образование",
      "address": "Красноармейская улица, 232"
    },
    {
      "latitude": 47.225621,
      "longitude": 39.708062,
      "name": "Гимназия №36",
      "dist": 1226.0,
      "subtitle": "",
      "tabName": "Образование",
      "address": "улица Максима Горького, 115"
    },
    {
      "latitude": 47.225656,
      "longitude": 39.738504,
      "name": "Школа №5",
      "dist": 1231.0,
      "subtitle": "",
      "tabName": "Образование",
      "address": "Социалистическая, 195"
    },
    {
      "latitude": 47.233742,
      "longitude": 39.71997,
      "name": "Школа №53 им. Б.Н. Слюсаря",
      "dist": 1349.0,
      "subtitle": "",
      "tabName": "Образование",
      "address": "Малюгиной, 212"
    },
    {
      "latitude": 47.227675,
      "longitude": 39.704912,
      "name": "Школа №43",
      "dist": 1534.0,
      "subtitle": "",
      "tabName": "Образование",
      "address": "Будённовский проспект, 64"
    },
    {
      "latitude": 47.217792,
      "longitude": 39.70379,
      "name": "Средняя общеобразовательная школа №55",
      "dist": 1541.0,
      "subtitle": "",
      "tabName": "Образование",
      "address": "Серафимовича, 25"
    },
    {
      "latitude": 47.221229,
      "longitude": 39.724676,
      "name": "Городская поликлиника №10",
      "dist": 126.0,
      "subtitle": "кардиологический центр",
      "tabName": "Медицина",
      "address": "проспект Чехова, 17"
    },
    {
      "latitude": 47.221331,
      "longitude": 39.724842,
      "name": "Городская поликлиника №10",
      "dist": 132.0,
      "subtitle": "поликлиническое отделение №6",
      "tabName": "Медицина",
      "address": "проспект Чехова, 17"
    },
    {
      "latitude": 47.223473,
      "longitude": 39.724507,
      "name": "Городская поликлиника №10",
      "dist": 207.0,
      "subtitle": "",
      "tabName": "Медицина",
      "address": "улица Большая Садовая, 106"
    },
    {
      "latitude": 47.224769,
      "longitude": 39.729055,
      "name": "Городская поликлиника №10",
      "dist": 549.0,
      "subtitle": "",
      "tabName": "Медицина",
      "address": "улица Большая Садовая, 107"
    },
    {
      "latitude": 47.227807,
      "longitude": 39.738703,
      "name": "Консультативно-диагностическая поликлиника",
      "dist": 1346.0,
      "subtitle": "РостГМУ",
      "tabName": "Медицина",
      "address": "Нахичеванский переулок, 38"
    },
    {
      "latitude": 47.23333,
      "longitude": 39.716756,
      "name": "Городская поликлиника №10",
      "dist": 1372.0,
      "subtitle": "детское отделение",
      "tabName": "Медицина",
      "address": "проспект Соколова, 77"
    },
    {
      "latitude": 47.222816,
      "longitude": 39.724501,
      "name": "Продуктовый магазин",
      "dist": 146.0,
      "subtitle": "",
      "tabName": "Продукты",
      "address": "проспект Чехова, 42"
    },
    {
      "latitude": 47.220586,
      "longitude": 39.725148,
      "name": "Коммунальник-Р",
      "dist": 198.0,
      "subtitle": "продуктовый магазин",
      "tabName": "Продукты",
      "address": "проспект Чехова, 9/1"
    },
    {
      "latitude": 47.22373,
      "longitude": 39.724127,
      "name": "ВкусВилл",
      "dist": 223.0,
      "subtitle": "магазин с доставкой полезных продуктов",
      "tabName": "Продукты",
      "address": "улица Большая Садовая, 83"
    },
    {
      "latitude": 47.220513,
      "longitude": 39.725852,
      "name": "Продуктовый магазин",
      "dist": 244.0,
      "subtitle": "",
      "tabName": "Продукты",
      "address": "Станиславского, 99"
    },
    {
      "latitude": 47.223668,
      "longitude": 39.725434,
      "name": "Красное&Белое",
      "dist": 264.0,
      "subtitle": "магазин алкогольных напитков",
      "tabName": "Продукты",
      "address": "улица Большая Садовая, 110"
    },
    {
      "latitude": 47.222825,
      "longitude": 39.726689,
      "name": "Продуктовый магазин",
      "dist": 283.0,
      "subtitle": "",
      "tabName": "Продукты",
      "address": "Крыловской переулок, 42"
    },
    {
      "latitude": 47.224412,
      "longitude": 39.721967,
      "name": "Пятёрочка",
      "dist": 305.0,
      "subtitle": "супермаркет",
      "tabName": "Продукты",
      "address": "улица Суворова, 23"
    },
    {
      "latitude": 47.21955,
      "longitude": 39.72096,
      "name": "Пятёрочка",
      "dist": 306.0,
      "subtitle": "супермаркет",
      "tabName": "Продукты",
      "address": "Станиславского, 85"
    },
    {
      "latitude": 47.219873,
      "longitude": 39.720021,
      "name": "Апекс плюс",
      "dist": 326.0,
      "subtitle": "продуктовый супермаркет",
      "tabName": "Продукты",
      "address": "Ворошиловский проспект, 12"
    },
    {
      "latitude": 47.224138,
      "longitude": 39.720596,
      "name": "Продуктовый магазин",
      "dist": 327.0,
      "subtitle": "",
      "tabName": "Продукты",
      "address": "улица Суворова, 19"
    },
    {
      "latitude": 47.223432,
      "longitude": 39.718526,
      "name": "Красная полка",
      "dist": 401.0,
      "subtitle": "супермаркет",
      "tabName": "Продукты",
      "address": "улица Суворова, 18"
    },
    {
      "latitude": 47.218782,
      "longitude": 39.719904,
      "name": "Магнит",
      "dist": 422.0,
      "subtitle": "супермаркет",
      "tabName": "Продукты",
      "address": "Ворошиловский проспект, 25"
    },
    {
      "latitude": 47.224471,
      "longitude": 39.727644,
      "name": "Магнит",
      "dist": 445.0,
      "subtitle": "супермаркет",
      "tabName": "Продукты",
      "address": "Университетский переулок, 51"
    },
    {
      "latitude": 47.218414,
      "longitude": 39.720119,
      "name": "Продуктовый магазин",
      "dist": 446.0,
      "subtitle": "",
      "tabName": "Продукты",
      "address": "Ворошиловский проспект, 23"
    },
    {
      "latitude": 47.218297,
      "longitude": 39.720131,
      "name": "Красное&Белое",
      "dist": 457.0,
      "subtitle": "магазин алкогольных напитков",
      "tabName": "Продукты",
      "address": "Ворошиловский проспект, 21"
    },
    {
      "latitude": 47.223322,
      "longitude": 39.729051,
      "name": "Ассорти",
      "dist": 470.0,
      "subtitle": "продуктовый магазин",
      "tabName": "Продукты",
      "address": "Социалистическая, 144-146"
    },
    {
      "latitude": 47.217697,
      "longitude": 39.721372,
      "name": "Продуктовый магазин",
      "dist": 479.0,
      "subtitle": "",
      "tabName": "Продукты",
      "address": "улица Седова, 3"
    },
    {
      "latitude": 47.219167,
      "longitude": 39.728266,
      "name": "Продуктовый магазин",
      "dist": 480.0,
      "subtitle": "",
      "tabName": "Продукты",
      "address": "улица Седова, 43"
    },
    {
      "latitude": 47.225347,
      "longitude": 39.726914,
      "name": "Красное&Белое",
      "dist": 481.0,
      "subtitle": "магазин алкогольных напитков",
      "tabName": "Продукты",
      "address": "Университетский переулок, 61"
    },
    {
      "latitude": 47.219262,
      "longitude": 39.718113,
      "name": "Продуктовый магазин",
      "dist": 482.0,
      "subtitle": "",
      "tabName": "Продукты",
      "address": "Московская, 80"
    },
    {
      "latitude": 47.223614,
      "longitude": 39.729327,
      "name": "Пятёрочка",
      "dist": 502.0,
      "subtitle": "супермаркет",
      "tabName": "Продукты",
      "address": "Социалистическая, 145"
    },
    {
      "latitude": 47.222161,
      "longitude": 39.716414,
      "name": "АТЕ 24",
      "dist": 519.0,
      "subtitle": "мультимаркет",
      "tabName": "Продукты",
      "address": "улица Большая Садовая, 59"
    },
    {
      "latitude": 47.221597,
      "longitude": 39.716036,
      "name": "Продуктовый магазин",
      "dist": 547.0,
      "subtitle": "",
      "tabName": "Продукты",
      "address": "Газетный переулок, 46"
    },
    {
      "latitude": 47.225153,
      "longitude": 39.728889,
      "name": "Кластер С52",
      "dist": 566.0,
      "subtitle": "культурно-деловой центр",
      "tabName": "Продукты",
      "address": "улица Суворова, 52а"
    },
    {
      "latitude": 47.22532,
      "longitude": 39.717739,
      "name": "Вкусный",
      "dist": 571.0,
      "subtitle": "продуктовый магазин",
      "tabName": "Продукты",
      "address": "Ворошиловский проспект, 30"
    },
    {
      "latitude": 47.219478,
      "longitude": 39.716284,
      "name": "Магнат",
      "dist": 588.0,
      "subtitle": "продовольственный магазин",
      "tabName": "Продукты",
      "address": "Темерницкая, 68"
    },
    {
      "latitude": 47.221553,
      "longitude": 39.715406,
      "name": "ВкусВилл",
      "dist": 595.0,
      "subtitle": "магазин с доставкой полезных продуктов",
      "tabName": "Продукты",
      "address": "улица Большая Садовая, 78"
    },
    {
      "latitude": 47.227026,
      "longitude": 39.719465,
      "name": "Отведай",
      "dist": 647.0,
      "subtitle": "магазин продуктов для здорового питания",
      "tabName": "Продукты",
      "address": "проспект Соколова, 41"
    },
    {
      "latitude": 47.223663,
      "longitude": 39.71513,
      "name": "Продуктовый магазин",
      "dist": 649.0,
      "subtitle": "",
      "tabName": "Продукты",
      "address": "Газетный переулок, 58Б"
    },
    {
      "latitude": 47.221968,
      "longitude": 39.731863,
      "name": "Продуктовый магазин",
      "dist": 652.0,
      "subtitle": "",
      "tabName": "Продукты",
      "address": "проспект Богатяновский Спуск, 15"
    },
    {
      "latitude": 47.227128,
      "longitude": 39.719423,
      "name": "Фасоль",
      "dist": 658.0,
      "subtitle": "магазин",
      "tabName": "Продукты",
      "address": "проспект Соколова, 41"
    },
    {
      "latitude": 47.221975,
      "longitude": 39.732204,
      "name": "Продовольственный магазин",
      "dist": 678.0,
      "subtitle": "",
      "tabName": "Продукты",
      "address": "проспект Богатяновский Спуск, 18"
    },
    {
      "latitude": 47.226553,
      "longitude": 39.717321,
      "name": "Фасоль",
      "dist": 692.0,
      "subtitle": "магазин",
      "tabName": "Продукты",
      "address": "Ворошиловский проспект, 36"
    },
    {
      "latitude": 47.217368,
      "longitude": 39.716649,
      "name": "Красное&Белое",
      "dist": 703.0,
      "subtitle": "магазин алкогольных напитков",
      "tabName": "Продукты",
      "address": "Тургеневская, 56"
    },
    {
      "latitude": 47.220024,
      "longitude": 39.713858,
      "name": "Продуктовый магазин",
      "dist": 739.0,
      "subtitle": "",
      "tabName": "Продукты",
      "address": "переулок Семашко, 34"
    },
    {
      "latitude": 47.218772,
      "longitude": 39.714382,
      "name": "Магнит",
      "dist": 752.0,
      "subtitle": "супермаркет",
      "tabName": "Продукты",
      "address": "Темерницкая, 58"
    },
    {
      "latitude": 47.228633,
      "longitude": 39.722134,
      "name": "Пятёрочка",
      "dist": 763.0,
      "subtitle": "супермаркет",
      "tabName": "Продукты",
      "address": "проспект Чехова, 82"
    },
    {
      "latitude": 47.217809,
      "longitude": 39.71481,
      "name": "Апекс плюс",
      "dist": 779.0,
      "subtitle": "продуктовый супермаркет",
      "tabName": "Продукты",
      "address": "Обороны, 73"
    },
    {
      "latitude": 47.217659,
      "longitude": 39.714877,
      "name": "Продуктовый магазин",
      "dist": 785.0,
      "subtitle": "",
      "tabName": "Продукты",
      "address": "Обороны, 73"
    },
    {
      "latitude": 47.227537,
      "longitude": 39.716779,
      "name": "Магнит",
      "dist": 803.0,
      "subtitle": "супермаркет",
      "tabName": "Продукты",
      "address": "улица Максима Горького, 159"
    },
    {
      "latitude": 47.227537,
      "longitude": 39.716779,
      "name": "ВкусВилл",
      "dist": 803.0,
      "subtitle": "магазин с доставкой полезных продуктов",
      "tabName": "Продукты",
      "address": "улица Максима Горького, 159"
    },
    {
      "latitude": 47.220975,
      "longitude": 39.712664,
      "name": "Апекс плюс",
      "dist": 808.0,
      "subtitle": "продуктовый супермаркет",
      "tabName": "Продукты",
      "address": "улица Большая Садовая, 64"
    },
    {
      "latitude": 47.222944,
      "longitude": 39.712605,
      "name": "Магнит",
      "dist": 816.0,
      "subtitle": "супермаркет",
      "tabName": "Продукты",
      "address": "переулок Семашко, 48е"
    },
    {
      "latitude": 47.229121,
      "longitude": 39.721818,
      "name": "Продуктовый магазин",
      "dist": 819.0,
      "subtitle": "",
      "tabName": "Продукты",
      "address": "проспект Чехова, 88"
    },
    {
      "latitude": 47.217582,
      "longitude": 39.714086,
      "name": "Максимовъ",
      "dist": 839.0,
      "subtitle": "торговый дом",
      "tabName": "Продукты",
      "address": "переулок Семашко, 21"
    },
    {
      "latitude": 47.226529,
      "longitude": 39.732363,
      "name": "Магнит Семейный",
      "dist": 866.0,
      "subtitle": "сеть гипермаркетов",
      "tabName": "Продукты",
      "address": "улица Суворова, 91"
    },
    {
      "latitude": 47.216309,
      "longitude": 39.71516,
      "name": "Продуктовый магазин",
      "dist": 866.0,
      "subtitle": "",
      "tabName": "Продукты",
      "address": "Баумана, 36"
    },
    {
      "latitude": 47.224252,
      "longitude": 39.711694,
      "name": "Продуктовый магазин",
      "dist": 917.0,
      "subtitle": "",
      "tabName": "Продукты",
      "address": "Пушкинская улица, 54"
    },
    {
      "latitude": 47.215138,
      "longitude": 39.716118,
      "name": "Продуктовый магазин",
      "dist": 918.0,
      "subtitle": "",
      "tabName": "Продукты",
      "address": "переулок Семашко, 2"
    },
    {
      "latitude": 47.224529,
      "longitude": 39.734878,
      "name": "Гастроном",
      "dist": 931.0,
      "subtitle": "",
      "tabName": "Продукты",
      "address": "Социалистическая, 166"
    },
    {
      "latitude": 47.219015,
      "longitude": 39.735608,
      "name": "Evo",
      "dist": 986.0,
      "subtitle": "футбольное поле",
      "tabName": "Спорт",
      "address": "Береговая, 67"
    },
    {
      "latitude": 47.224004,
      "longitude": 39.723981,
      "name": "jet gym",
      "dist": 250.0,
      "subtitle": "фитнес-клуб",
      "tabName": "Спорт",
      "address": "проспект Чехова, 50"
    },
    {
      "latitude": 47.220424,
      "longitude": 39.720549,
      "name": "Go`n`Stretch",
      "dist": 257.0,
      "subtitle": "студия растяжки",
      "tabName": "Спорт",
      "address": "Ворошиловский проспект, 12"
    },
    {
      "latitude": 47.227453,
      "longitude": 39.711329,
      "name": "Умка спорт",
      "dist": 1099.0,
      "subtitle": "детский спортивный центр",
      "tabName": "Спорт",
      "address": "Красноармейская улица, 164"
    },
    {
      "latitude": 47.229284,
      "longitude": 39.732892,
      "name": "Fit Center Rostov",
      "dist": 1106.0,
      "subtitle": "",
      "tabName": "Спорт",
      "address": "Пушкинская улица, 197"
    },
    {
      "latitude": 47.225668,
      "longitude": 39.736802,
      "name": "Пари",
      "dist": 1112.0,
      "subtitle": "студия здорового фитнеса и растяжки",
      "tabName": "Спорт",
      "address": "улица Большая Садовая, 162"
    },
    {
      "latitude": 47.218241,
      "longitude": 39.709497,
      "name": "My Community",
      "dist": 1115.0,
      "subtitle": "танцевальная студия",
      "tabName": "Спорт",
      "address": "Темерницкая, 45"
    },
    {
      "latitude": 47.224683,
      "longitude": 39.709059,
      "name": "Ростовская Яхтенная Школа Олега Гончаренко",
      "dist": 1121.0,
      "subtitle": "",
      "tabName": "Спорт",
      "address": "Соборный переулок, 34"
    },
    {
      "latitude": 47.229331,
      "longitude": 39.71315,
      "name": "Городской шахматный клуб",
      "dist": 1133.0,
      "subtitle": "Шахматный клуб",
      "tabName": "Спорт",
      "address": "Газетный переулок, 92/85"
    },
    {
      "latitude": 47.221395,
      "longitude": 39.708247,
      "name": "Олимпия",
      "dist": 1138.0,
      "subtitle": "спортивно-оздоровительный клуб",
      "tabName": "Спорт",
      "address": "Будённовский проспект, 34"
    },
    {
      "latitude": 47.226323,
      "longitude": 39.736788,
      "name": "Grandmaster",
      "dist": 1141.0,
      "subtitle": "спортивный клуб тхэквондо",
      "tabName": "Спорт",
      "address": "улица Большая Садовая, 127Б"
    },
    {
      "latitude": 47.226323,
      "longitude": 39.736788,
      "name": "Белый Воин",
      "dist": 1141.0,
      "subtitle": "спортивный центр киокусинкай карате",
      "tabName": "Спорт",
      "address": "улица Большая Садовая, 127Б"
    },
    {
      "latitude": 47.231681,
      "longitude": 39.727392,
      "name": "Большой",
      "dist": 1141.0,
      "subtitle": "каток",
      "tabName": "Спорт",
      "address": "Красноармейская улица, 105"
    },
    {
      "latitude": 47.219121,
      "longitude": 39.708536,
      "name": "Классы Большого",
      "dist": 1154.0,
      "subtitle": "балетная школа",
      "tabName": "Спорт",
      "address": "Будённовский проспект, 26/57"
    },
    {
      "latitude": 47.22689,
      "longitude": 39.736598,
      "name": "Областной Дом физической культуры",
      "dist": 1157.0,
      "subtitle": "",
      "tabName": "Спорт",
      "address": "улица Большая Садовая, 127Б"
    },
    {
      "latitude": 47.224717,
      "longitude": 39.72255,
      "name": "Академия",
      "dist": 327.0,
      "subtitle": "фитнес-клуб",
      "tabName": "Спорт",
      "address": "улица Суворова, 25"
    },
    {
      "latitude": 47.221455,
      "longitude": 39.718776,
      "name": "Branch Lee",
      "dist": 342.0,
      "subtitle": "школа киокушинкай каратэ-до ",
      "tabName": "Спорт",
      "address": "Ворошиловский проспект, 39/115"
    },
    {
      "latitude": 47.221281,
      "longitude": 39.718776,
      "name": "Инферно",
      "dist": 344.0,
      "subtitle": "тренажерный зал",
      "tabName": "Спорт",
      "address": "Социалистическая, 115/39"
    },
    {
      "latitude": 47.224471,
      "longitude": 39.727644,
      "name": "Arni",
      "dist": 445.0,
      "subtitle": "фитнес-клуб",
      "tabName": "Спорт",
      "address": "улица Большая Садовая, 103"
    },
    {
      "latitude": 47.225576,
      "longitude": 39.725652,
      "name": "Best sport&beauty",
      "dist": 456.0,
      "subtitle": "центр красоты и здоровья",
      "tabName": "Спорт",
      "address": "улица Суворова, 59"
    },
    {
      "latitude": 47.225926,
      "longitude": 39.72285,
      "name": "Practice Yoga",
      "dist": 458.0,
      "subtitle": "фитнес центр",
      "tabName": "Спорт",
      "address": "проспект Чехова, 51"
    },
    {
      "latitude": 47.225701,
      "longitude": 39.725332,
      "name": "R-1",
      "dist": 460.0,
      "subtitle": "академия фитнеса и единоборств",
      "tabName": "Спорт",
      "address": "улица Суворова, 55"
    },
    {
      "latitude": 47.223755,
      "longitude": 39.729193,
      "name": "Первый Фитнес",
      "dist": 499.0,
      "subtitle": "",
      "tabName": "Спорт",
      "address": "Социалистическая, 145"
    },
    {
      "latitude": 47.223755,
      "longitude": 39.729193,
      "name": "Tiger",
      "dist": 499.0,
      "subtitle": "клуб тайского бокса, кикбоксинга и ММА",
      "tabName": "Спорт",
      "address": "Социалистическая, 145"
    },
    {
      "latitude": 47.217048,
      "longitude": 39.722536,
      "name": "S-Class",
      "dist": 533.0,
      "subtitle": "сеть фитнес-студий",
      "tabName": "Спорт",
      "address": "Нижнебульварная улица, 6"
    },
    {
      "latitude": 47.225409,
      "longitude": 39.717701,
      "name": "GOSTRETCHING",
      "dist": 580.0,
      "subtitle": "студия растяжки и функционального тренинга",
      "tabName": "Спорт",
      "address": "Пушкинская улица, 104"
    },
    {
      "latitude": 47.220138,
      "longitude": 39.715754,
      "name": "Grandmaster",
      "dist": 598.0,
      "subtitle": "спортивный клуб тхэквондо",
      "tabName": "Спорт",
      "address": "Серафимовича, 85"
    },
    {
      "latitude": 47.221936,
      "longitude": 39.715357,
      "name": "Школьная спортивная лига",
      "dist": 598.0,
      "subtitle": "",
      "tabName": "Спорт",
      "address": "улица Большая Садовая, 55"
    },
    {
      "latitude": 47.220901,
      "longitude": 39.715079,
      "name": "Пространство йоги",
      "dist": 627.0,
      "subtitle": "",
      "tabName": "Спорт",
      "address": "Шаумяна, 94"
    },
    {
      "latitude": 47.227402,
      "longitude": 39.721626,
      "name": "Eywa",
      "dist": 633.0,
      "subtitle": "студия",
      "tabName": "Спорт",
      "address": "проспект Чехова, 63"
    },
    {
      "latitude": 47.216235,
      "longitude": 39.719608,
      "name": "Йога-дом",
      "dist": 679.0,
      "subtitle": "центр йоги",
      "tabName": "Спорт",
      "address": "Донская улица, 53"
    },
    {
      "latitude": 47.223848,
      "longitude": 39.714077,
      "name": "Федерация Киокусинкай Ростовской области",
      "dist": 731.0,
      "subtitle": "",
      "tabName": "Спорт",
      "address": "Газетный переулок, 55а"
    },
    {
      "latitude": 47.228395,
      "longitude": 39.726714,
      "name": "Донская Ладья",
      "dist": 777.0,
      "subtitle": "шахматный центр",
      "tabName": "Спорт",
      "address": "Пушкинская улица, 175а"
    },
    {
      "latitude": 47.218214,
      "longitude": 39.714132,
      "name": "Тустеп",
      "dist": 799.0,
      "subtitle": "школа танцев",
      "tabName": "Спорт",
      "address": "Московская, 58Б"
    },
    {
      "latitude": 47.218302,
      "longitude": 39.713924,
      "name": "AirGym",
      "dist": 807.0,
      "subtitle": "студия воздушной гимнастики и фитнеса",
      "tabName": "Спорт",
      "address": "Московская, 58Б"
    },
    {
      "latitude": 47.226403,
      "longitude": 39.731834,
      "name": "Prime Studio",
      "dist": 826.0,
      "subtitle": "фитнес-клуб",
      "tabName": "Спорт",
      "address": "улица Суворова, 91"
    },
    {
      "latitude": 47.21984,
      "longitude": 39.712658,
      "name": "Bee in dance",
      "dist": 832.0,
      "subtitle": "школа танцев",
      "tabName": "Спорт",
      "address": "Социалистическая, 74"
    },
    {
      "latitude": 47.227369,
      "longitude": 39.73063,
      "name": "Академия детства",
      "dist": 833.0,
      "subtitle": "центр раннего развития",
      "tabName": "Спорт",
      "address": "Кировский проспект, 46"
    },
    {
      "latitude": 47.227369,
      "longitude": 39.73063,
      "name": "Максимум",
      "dist": 833.0,
      "subtitle": "детский шахматный клуб",
      "tabName": "Спорт",
      "address": "Кировский проспект, 46"
    },
    {
      "latitude": 47.21855,
      "longitude": 39.733197,
      "name": "Регата Яхт Групп",
      "dist": 836.0,
      "subtitle": "",
      "tabName": "Спорт",
      "address": "Береговая, 16а"
    },
    {
      "latitude": 47.227331,
      "longitude": 39.731452,
      "name": "Body and Soul",
      "dist": 873.0,
      "subtitle": "центр йоги, массажа и телесных практик",
      "tabName": "Спорт",
      "address": "Кировский проспект, 48"
    },
    {
      "latitude": 47.226537,
      "longitude": 39.732526,
      "name": "Prime Sport & Spa",
      "dist": 877.0,
      "subtitle": "фитнес-клуб",
      "tabName": "Спорт",
      "address": "улица Суворова, 91"
    },
    {
      "latitude": 47.228668,
      "longitude": 39.717454,
      "name": "Sky Jumping",
      "dist": 879.0,
      "subtitle": "фитнес-клуб на батутах",
      "tabName": "Спорт",
      "address": "Красноармейская улица, 178а"
    },
    {
      "latitude": 47.227071,
      "longitude": 39.71361,
      "name": "Fitron",
      "dist": 935.0,
      "subtitle": "фитнес-клуб",
      "tabName": "Спорт",
      "address": "Красноармейская улица, 170"
    },
    {
      "latitude": 47.219216,
      "longitude": 39.73544,
      "name": "Спартак Юниор",
      "dist": 967.0,
      "subtitle": "футбольная школа",
      "tabName": "Спорт",
      "address": "Береговая, 67"
    },
    {
      "latitude": 47.227238,
      "longitude": 39.713281,
      "name": "Bodium",
      "dist": 966.0,
      "subtitle": "фитнес-клуб",
      "tabName": "Спорт",
      "address": "Газетный переулок, 99"
    },
    {
      "latitude": 47.227567,
      "longitude": 39.713134,
      "name": "Антарес",
      "dist": 998.0,
      "subtitle": "спортивный клуб реального айкидо",
      "tabName": "Спорт",
      "address": "Газетный переулок, 99"
    },
    {
      "latitude": 47.219433,
      "longitude": 39.710012,
      "name": "Ракета",
      "dist": 1037.0,
      "subtitle": "фитнес-клуб",
      "tabName": "Спорт",
      "address": "Социалистическая, 65"
    },
    {
      "latitude": 47.230367,
      "longitude": 39.716981,
      "name": "Ирис",
      "dist": 1063.0,
      "subtitle": "фитнес-клуб",
      "tabName": "Спорт",
      "address": "Ворошиловский проспект, 52/61"
    },
    {
      "objId": 24255,
      "latitude": 47.222,
      "longitude": 39.7203,
      "name": "ЖК \"Днепровская роща\"",
      "dist": 221.313117884848,
      "subtitle": "г. Ростов-на-Дону, улица Днепровская, д. 117, блок-секция 2",
      "tabName": "Новостройки",
      "address": "г. Ростов-на-Дону, улица Днепровская, д. 117, блок-секция 2",
      "status": 2
    },
    {
      "objId": 10908,
      "latitude": 47.222,
      "longitude": 39.7203,
      "dist": 221.313117884848,
      "subtitle": "г. Ростов-на-Дону, Советский район, 2 микрорайон жилого района \"Левенцовский\" (пятно 7)",
      "tabName": "Новостройки",
      "address": "г. Ростов-на-Дону, Советский район, 2 микрорайон жилого района \"Левенцовский\" (пятно 7)",
      "status": 2
    },
    {
      "objId": 24975,
      "latitude": 47.222,
      "longitude": 39.7203,
      "name": "Звездный-2",
      "dist": 221.313117884848,
      "subtitle": "г. Ростов-на-Дону, бульвар Комарова, д. 1, корпус е, строение 2",
      "tabName": "Новостройки",
      "address": "г. Ростов-на-Дону, бульвар Комарова, д. 1, корпус е, строение 2",
      "status": 2
    },
    {
      "objId": 22082,
      "latitude": 47.2218,
      "longitude": 39.7264,
      "name": "ЖК \"Петровская Крепость\"",
      "dist": 240.171446335239,
      "subtitle": "г. Ростов-на-Дону, ул Петровская, д. 3",
      "tabName": "Новостройки",
      "address": "г. Ростов-на-Дону, ул Петровская, д. 3",
      "status": 2
    },
    {
      "objId": 49196,
      "latitude": 47.2187,
      "longitude": 39.7258,
      "dist": 397.506811439052,
      "subtitle": "г. Ростов-на-Дону, ул Седова, д. 21/1",
      "tabName": "Новостройки",
      "address": "г. Ростов-на-Дону, ул Седова, д. 21/1",
      "status": 0
    },
    {
      "objId": 18037,
      "latitude": 47.2258,
      "longitude": 39.7227,
      "name": "\"Дом на Чехова\"",
      "dist": 450.176578480864,
      "subtitle": "г. Ростов-на-Дону, проспект Чехова, д. 51,53",
      "tabName": "Новостройки",
      "address": "г. Ростов-на-Дону, проспект Чехова, д. 51,53",
      "status": 2
    },
    {
      "objId": 56837,
      "latitude": 47.2256,
      "longitude": 39.7208,
      "name": "ЖК \"РЕНОМЕ\"",
      "dist": 467.827905908851,
      "subtitle": "г. Ростов-на-Дону, проспект Соколова, д. 38-40",
      "tabName": "Новостройки",
      "address": "г. Ростов-на-Дону, проспект Соколова, д. 38-40",
      "status": 0
    },
    {
      "objId": 58094,
      "latitude": 47.216,
      "longitude": 39.7202,
      "name": "Клубный дом Парамонов",
      "dist": 675.693440646586,
      "subtitle": "город Ростов-на-Дону, Улица Донская, д. 46-50",
      "tabName": "Новостройки",
      "address": "город Ростов-на-Дону, Улица Донская, д. 46-50",
      "status": 0
    },
    {
      "objId": 30089,
      "latitude": 47.2184,
      "longitude": 39.7312,
      "dist": 708.579087293128,
      "subtitle": "г. Ростов-на-Дону, район Кировский р-н, ул Береговая, д. 55а",
      "tabName": "Новостройки",
      "address": "г. Ростов-на-Дону, район Кировский р-н, ул Береговая, д. 55а",
      "status": 2
    },
    {
      "objId": 55719,
      "latitude": 47.2152,
      "longitude": 39.7198,
      "dist": 771.751470591793,
      "subtitle": "г. Ростов-на-Дону",
      "tabName": "Новостройки",
      "address": "г. Ростов-на-Дону",
      "status": 0
    },
    {
      "objId": 8709,
      "latitude": 47.2265,
      "longitude": 39.7153,
      "name": "ЖК \" Бристоль\"",
      "dist": 790.082995509275,
      "subtitle": "г. Ростов-на-Дону, улица Максима Горького, д. 120",
      "tabName": "Новостройки",
      "address": "г. Ростов-на-Дону, улица Максима Горького, д. 120",
      "status": 2
    },
    {
      "objId": 11920,
      "latitude": 47.2198,
      "longitude": 39.7334,
      "dist": 795.514356796404,
      "subtitle": "г. Ростов-на-Дону, ул Седова, д. 14б",
      "tabName": "Новостройки",
      "address": "г. Ростов-на-Дону, ул Седова, д. 14б",
      "status": 2
    },
    {
      "objId": 46627,
      "latitude": 47.2191,
      "longitude": 39.7335,
      "name": "ЖК Панорама 2.0",
      "dist": 828.519262274087,
      "subtitle": "город Ростов-на-Дону",
      "tabName": "Новостройки",
      "address": "город Ростов-на-Дону",
      "status": 0
    },
    {
      "objId": 46628,
      "latitude": 47.2191,
      "longitude": 39.7335,
      "name": "ЖК Панорама 2.0",
      "dist": 828.519262274087,
      "subtitle": "город Ростов-на-Дону",
      "tabName": "Новостройки",
      "address": "город Ростов-на-Дону",
      "status": 0
    },
    {
      "objId": 22564,
      "latitude": 47.2296,
      "longitude": 39.7239,
      "name": "ЖК \"ЗВЕЗДА\"",
      "dist": 877.228721655288,
      "subtitle": "г. Ростов-на-Дону, ул. Красноармейская, д. 202",
      "tabName": "Новостройки",
      "address": "г. Ростов-на-Дону, ул. Красноармейская, д. 202",
      "status": 2
    },
    {
      "objId": 22565,
      "latitude": 47.2296,
      "longitude": 39.7239,
      "name": "ЖК \"ЗВЕЗДА\"",
      "dist": 877.228721655288,
      "subtitle": "г. Ростов-на-Дону, ул. Красноармейская, д. 202",
      "tabName": "Новостройки",
      "address": "г. Ростов-на-Дону, ул. Красноармейская, д. 202",
      "status": 2
    },
    {
      "objId": 42804,
      "latitude": 47.2253,
      "longitude": 39.7124,
      "name": "ЖК\"Пушкин\"",
      "dist": 901.251648342338,
      "subtitle": "г. Ростов-на-Дону, ул Пушкинская, д. 97",
      "tabName": "Новостройки",
      "address": "г. Ростов-на-Дону, ул Пушкинская, д. 97",
      "status": 2
    },
    {
      "objId": 1552,
      "latitude": 47.219,
      "longitude": 39.7346,
      "name": "Жилой комплекс «Аквамарин»",
      "dist": 912.96844031396,
      "subtitle": "г. Ростов-на-Дону, ул Береговая, д. 61/1б",
      "tabName": "Новостройки",
      "address": "г. Ростов-на-Дону, ул Береговая, д. 61/1б",
      "status": 2
    },
    {
      "objId": 10886,
      "latitude": 47.219,
      "longitude": 39.7346,
      "name": "Жилой комплекс «Аквамарин»",
      "dist": 912.96844031396,
      "subtitle": "г. Ростов-на-Дону, ул Береговая, д. 61/1б",
      "tabName": "Новостройки",
      "address": "г. Ростов-на-Дону, ул Береговая, д. 61/1б",
      "status": 2
    },
    {
      "objId": 58740,
      "latitude": 47.2186,
      "longitude": 39.7354,
      "dist": 983.504777781701,
      "subtitle": "город Г Ростов-на-Дону, Береговая, д. 16",
      "tabName": "Новостройки",
      "address": "город Г Ростов-на-Дону, Береговая, д. 16",
      "status": 0
    },
    {
      "objId": 58741,
      "latitude": 47.2186,
      "longitude": 39.7354,
      "dist": 983.504777781701,
      "subtitle": "город Г Ростов-на-Дону, Береговая, д. 16",
      "tabName": "Новостройки",
      "address": "город Г Ростов-на-Дону, Береговая, д. 16",
      "status": 0
    },
    {
      "objId": 58739,
      "latitude": 47.2186,
      "longitude": 39.7354,
      "name": "Резиденция \"Берег\"",
      "dist": 983.504777781701,
      "subtitle": "город Г Ростов-на-Дону, Береговая, д. 16",
      "tabName": "Новостройки",
      "address": "город Г Ростов-на-Дону, Береговая, д. 16",
      "status": 0
    },
    {
      "objId": 44781,
      "latitude": 47.2311,
      "longitude": 39.7286,
      "dist": 1118.27071850172,
      "subtitle": "г. Ростов-на-Дону, ул Восточная, д. 7",
      "tabName": "Новостройки",
      "address": "г. Ростов-на-Дону, ул Восточная, д. 7",
      "status": 2
    },
    {
      "objId": 44778,
      "latitude": 47.2311,
      "longitude": 39.7288,
      "dist": 1124.59657132598,
      "subtitle": "г. Ростов-на-Дону, ул Восточная, д. 7",
      "tabName": "Новостройки",
      "address": "г. Ростов-на-Дону, ул Восточная, д. 7",
      "status": 2
    },
    {
      "objId": 38982,
      "latitude": 47.2313,
      "longitude": 39.7183,
      "name": "ЖК \"Соколова 68\"",
      "dist": 1126.42063700777,
      "subtitle": "г. Ростов-на-Дону, пр-кт Соколова, д. 68/118в",
      "tabName": "Новостройки",
      "address": "г. Ростов-на-Дону, пр-кт Соколова, д. 68/118в",
      "status": 2
    },
    {
      "objId": 38526,
      "latitude": 47.2314,
      "longitude": 39.7183,
      "name": "ЖК \"Соколова 68\"",
      "dist": 1129.16493195627,
      "subtitle": "г. Ростов-на-Дону, пр-кт Соколова, д. 68/118в",
      "tabName": "Новостройки",
      "address": "г. Ростов-на-Дону, пр-кт Соколова, д. 68/118в",
      "status": 2
    },
    {
      "objId": 55070,
      "latitude": 47.2242,
      "longitude": 39.7084,
      "name": "Клубный дом Летний сад",
      "dist": 1151.5299268937,
      "subtitle": "город Ростов-на-Дону, Ул.Пушкинская, д. 67/25, 69",
      "tabName": "Новостройки",
      "address": "город Ростов-на-Дону, Ул.Пушкинская, д. 67/25, 69",
      "status": 0
    },
    {
      "objId": 31378,
      "latitude": 47.2285,
      "longitude": 39.7362,
      "dist": 1231.13767691418,
      "subtitle": "г. Ростов-на-Дону, переулок Крепостной, д. 100",
      "tabName": "Новостройки",
      "address": "г. Ростов-на-Дону, переулок Крепостной, д. 100",
      "status": 2
    },
    {
      "objId": 48013,
      "latitude": 47.2306,
      "longitude": 39.7132,
      "name": "Клубный дом \"Лермонт\"",
      "dist": 1244.01506893065,
      "subtitle": "г. Ростов-на-Дону, ул Лермонтовская, д. 123",
      "tabName": "Новостройки",
      "address": "г. Ростов-на-Дону, ул Лермонтовская, д. 123",
      "status": 2
    },
    {
      "objId": 28286,
      "latitude": 47.23,
      "longitude": 39.7345,
      "name": "ЖК \"Крепостной Вал\"",
      "dist": 1252.15989765021,
      "subtitle": "г. Ростов-на-Дону, пер. Крепостной, д. 99",
      "tabName": "Новостройки",
      "address": "г. Ростов-на-Дону, пер. Крепостной, д. 99",
      "status": 2
    },
    {
      "objId": 59072,
      "latitude": 47.2319,
      "longitude": 39.7321,
      "name": "ЖК \"Космос\"",
      "dist": 1308.38573626875,
      "subtitle": "Город Ростов-на-Дону, Улица Красноармейская, 250-254",
      "tabName": "Новостройки",
      "address": "Город Ростов-на-Дону, Улица Красноармейская, 250-254",
      "status": 0
    },
    {
      "objId": 58852,
      "latitude": 47.2319,
      "longitude": 39.7321,
      "name": "ЖК \"Космос\"",
      "dist": 1308.38573626875,
      "subtitle": "город Г Ростов-на-Дону, Красноармейская 250-254",
      "tabName": "Новостройки",
      "address": "город Г Ростов-на-Дону, Красноармейская 250-254",
      "status": 0
    },
    {
      "objId": 16835,
      "latitude": 47.2329,
      "longitude": 39.7289,
      "name": "Жилой комплекс \"Тихий центр\"",
      "dist": 1313.37334608107,
      "subtitle": "г. Ростов-на-Дону, район Кировский",
      "tabName": "Новостройки",
      "address": "г. Ростов-на-Дону, район Кировский",
      "status": 2
    },
    {
      "objId": 6150,
      "latitude": 47.2341,
      "longitude": 39.7231,
      "dist": 1368.34394753719,
      "subtitle": "г. Ростов-на-Дону, район Кировский, переулок Университетский, д. 137-139",
      "tabName": "Новостройки",
      "address": "г. Ростов-на-Дону, район Кировский, переулок Университетский, д. 137-139",
      "status": 2
    },
    {
      "objId": 57453,
      "latitude": 47.2289,
      "longitude": 39.7082,
      "name": "Клубный Дом \"Бау-Хаус\"",
      "dist": 1384.84007711153,
      "subtitle": "город Ростов-на-Дону, ул Тельмана, д. 41",
      "tabName": "Новостройки",
      "address": "город Ростов-на-Дону, ул Тельмана, д. 41",
      "status": 0
    },
    {
      "objId": 33796,
      "latitude": 47.2343,
      "longitude": 39.7231,
      "dist": 1395.11329090605,
      "subtitle": "г. Ростов-на-Дону, район Кировский, пер Университетский, д. 137-139",
      "tabName": "Новостройки",
      "address": "г. Ростов-на-Дону, район Кировский, пер Университетский, д. 137-139",
      "status": 2
    },
    {
      "objId": 17717,
      "latitude": 47.2311,
      "longitude": 39.7365,
      "name": "\"Дом на Сенной\"",
      "dist": 1446.53441485766,
      "subtitle": "г. Ростов-на-Дону, ул Максима Горького, д. 224/225",
      "tabName": "Новостройки",
      "address": "г. Ростов-на-Дону, ул Максима Горького, д. 224/225",
      "status": 2
    },
    {
      "objId": 28069,
      "latitude": 47.2341,
      "longitude": 39.7171,
      "name": "ЖК \"КРИСТАЛЛ\"",
      "dist": 1447.54645959357,
      "subtitle": "г. Ростов-на-Дону, пр-кт Соколова, д. 86",
      "tabName": "Новостройки",
      "address": "г. Ростов-на-Дону, пр-кт Соколова, д. 86",
      "status": 2
    }
  ],
  "errcode": "0"
}
